[{"name":"Dolby Screening Room","location":{"type":"Point","coordinates":[-0.1328219486,51.5154722633]}},{"name":"NBC Universal Screening Rooms","location":{"type":"Point","coordinates":[-0.1271038334,51.5161049966]}},{"name":"20th Century Fox Film Company","location":{"type":"Point","coordinates":[-0.1323485986,51.5147987671]}},{"name":"Soho Screening Rooms","location":{"type":"Point","coordinates":[-0.1364886482,51.5145482888]}},{"name":"Charlotte Street Hotel Screening Room","location":{"type":"Point","coordinates":[-0.1345409648,51.5184539861]}},{"name":"Curzon Soho","location":{"type":"Point","coordinates":[-0.1305203257,51.5126085439]}},{"name":"Prince Charles Cinema","location":{"type":"Point","coordinates":[-0.1302689562,51.5115289905]}},{"name":"West End Film Club","location":{"type":"Point","coordinates":[-0.1322221756,51.5120277079]}},{"name":"Regent Street Cinema","location":{"type":"Point","coordinates":[-0.142657439,51.5168523513]}},{"name":"20th Century Fox screening room","location":{"type":"Point","coordinates":[-0.1322518218,51.5148258958]}},{"name":"One7nine","location":{"type":"Point","coordinates":[-0.135357,51.515163]}},{"name":"Odeon","location":{"type":"Point","coordinates":[-0.132427545,51.5183525913]}},{"name":"MPC (Moving Picture Company)","location":{"type":"Point","coordinates":[-0.1343074227,51.5137008052]}},{"name":"Soho Hotel Screening Rooms","location":{"type":"Point","coordinates":[-0.1336616744,51.5141025304]}},{"name":"Curzon Bloomsbury","location":{"type":"Point","coordinates":[-0.1230023852,51.5241203463]}},{"name":"Rada Bar \/ Theatres","location":{"type":"Point","coordinates":[-0.1309200076,51.5219875954]}},{"name":"Soho House Screening Room","location":{"type":"Point","coordinates":[-0.1309390331,51.5132384862]}},{"name":"Odeon","location":{"type":"Point","coordinates":[-0.128237,51.514224]}},{"name":"Picturehouse Central","location":{"type":"Point","coordinates":[-0.1339556447,51.5106947713]}},{"name":"Warner Bros Screening Rooms","location":{"type":"Point","coordinates":[-0.1189560019,51.5201036419]}},{"name":"Cineworld","location":{"type":"Point","coordinates":[-0.1305995465,51.5110772137]}},{"name":"London Film Museum","location":{"type":"Point","coordinates":[-0.1210425922,51.5124118667]}},{"name":"Criterion Theatre","location":{"type":"Point","coordinates":[-0.1343326264,51.5099631639]}},{"name":"Vue","location":{"type":"Point","coordinates":[-0.1293173331,51.5113386459]}},{"name":"Vue","location":{"type":"Point","coordinates":[-0.1341380382,51.5090534805]}},{"name":"ODEON Luxe","location":{"type":"Point","coordinates":[-0.129325,51.5104854]}},{"name":"ICA Cinema","location":{"type":"Point","coordinates":[-0.1310683159,51.5060182981]}},{"name":"Empire Cinemas","location":{"type":"Point","coordinates":[-0.1320121597,51.5087985524]}},{"name":"Embankment Garden Cinema","location":{"type":"Point","coordinates":[-0.1222205964,51.5080433416]}},{"name":"Odeon","location":{"type":"Point","coordinates":[-0.1312026643,51.5095572685]}},{"name":"Sainsbury Wing Theatre","location":{"type":"Point","coordinates":[-0.1296472549,51.5083551577]}}]