[{"name":"Hackesche H\u00f6fe Kino","location":{"type":"Point","coordinates":[13.4020784077,52.5241480146]}},{"name":"Kino Central","location":{"type":"Point","coordinates":[13.4019297843,52.5244788711]}},{"name":"Zeughauskino","location":{"type":"Point","coordinates":[13.3980804821,52.518381556]}},{"name":"Babylon","location":{"type":"Point","coordinates":[13.4115225077,52.5258401325]}},{"name":"Z-Bar","location":{"type":"Point","coordinates":[13.3954817589,52.5295597864]}},{"name":"ACUD Kino","location":{"type":"Point","coordinates":[13.4008579574,52.5336049674]}},{"name":"Soho House Cinema","location":{"type":"Point","coordinates":[13.4157751858,52.5273585251]}},{"name":"Lichtblick-Kino","location":{"type":"Point","coordinates":[13.4075851269,52.5365330675]}},{"name":"CineStar CUBIX","location":{"type":"Point","coordinates":[13.411924839,52.5202803208]}}]