[{"name":"Argyle School","location":{"type":"Point","coordinates":[-0.1243230382,51.5282711041]}},{"name":"St Peter's Eaton Square CE Primary","location":{"type":"Point","coordinates":[-0.1465684509,51.4959493201]}},{"name":"Primrose Hill Primary School","location":{"type":"Point","coordinates":[-0.1517360768,51.539242933]}},{"name":"Fairley House School","location":{"type":"Point","coordinates":[-0.1174436265,51.4952018511]}},{"name":"Millbank Primary School","location":{"type":"Point","coordinates":[-0.1303624416,51.4920228216]}},{"name":"Eaton Square School","location":{"type":"Point","coordinates":[-0.1432279426,51.4926999509]}},{"name":"Paddington Green Primary School","location":{"type":"Point","coordinates":[-0.1774139552,51.5230335209]}},{"name":"New North Primary Academy","location":{"type":"Point","coordinates":[-0.095172,51.538771613]}},{"name":"William Tyndale School","location":{"type":"Point","coordinates":[-0.1014930111,51.5417263868]}},{"name":"Laycock Primary School","location":{"type":"Point","coordinates":[-0.1046919823,51.5443400567]}},{"name":"Canonbury Primary School","location":{"type":"Point","coordinates":[-0.101010918,51.5452287714]}},{"name":"Sir John Cass Primary School","location":{"type":"Point","coordinates":[-0.0769131257,51.5136353171]}}]