[{"name":"Kastanienbaum-Grundschule","location":{"type":"Point","coordinates":[13.4022240759,52.5266681619]}},{"name":"Grundschule am Koppenplatz","location":{"type":"Point","coordinates":[13.3971512318,52.5277082473]}},{"name":"ESBM Evangelische Schule Berlin Mitte","location":{"type":"Point","coordinates":[13.4060573504,52.5228378874]}},{"name":"Schule am Zille-Park","location":{"type":"Point","coordinates":[13.3959978819,52.5300364273]}},{"name":"Papageno Grundschule","location":{"type":"Point","coordinates":[13.3908066469,52.5326350382]}},{"name":"Grundschule Neues Tor","location":{"type":"Point","coordinates":[13.3812056599,52.5274763539]}},{"name":"Grundschule am Teutoburger Platz","location":{"type":"Point","coordinates":[13.4082555771,52.5337800725]}},{"name":"Grundschule am Arkonaplatz","location":{"type":"Point","coordinates":[13.4002625942,52.5370952986]}},{"name":"Schule am Senefelderplatz","location":{"type":"Point","coordinates":[13.4119462967,52.5346611117]}}]