[{"name":"Evo Berlin Rosa","location":{"type":"Point","coordinates":[13.4101117312,52.5244669105]}},{"name":"BEAT81 Indoor","location":{"type":"Point","coordinates":[13.4004101634,52.5312226778]}},{"name":"Fitness First","location":{"type":"Point","coordinates":[13.3956565,52.5139595]}},{"name":"FitX","location":{"type":"Point","coordinates":[13.4160802,52.5229596]}},{"name":"Cowshed Active","location":{"type":"Point","coordinates":[13.4157906544,52.5273784382]}},{"name":"fitness & friends","location":{"type":"Point","coordinates":[13.3901147942,52.5157497181]}},{"name":"Superfit","location":{"type":"Point","coordinates":[13.4157336869,52.5188989372]}},{"name":"Kieser Training","location":{"type":"Point","coordinates":[13.381523,52.527973]}},{"name":"CrossFit Grenzg\u00e4nger","location":{"type":"Point","coordinates":[13.381973849,52.5226887682]}},{"name":"John Reed Fitness","location":{"type":"Point","coordinates":[13.4163236,52.5283196]}},{"name":"Holmes Place","location":{"type":"Point","coordinates":[13.3905142861,52.512599]}},{"name":"Spirit Yoga","location":{"type":"Point","coordinates":[13.4021408409,52.5247887647]}},{"name":"Fitness First Women Club","location":{"type":"Point","coordinates":[13.4045299888,52.5207533131]}},{"name":"SPEED-FIT Club Mitte","location":{"type":"Point","coordinates":[13.3855217673,52.5209977365]}},{"name":"Bodystreet","location":{"type":"Point","coordinates":[13.3990816335,52.5231336586]}},{"name":"befine Sports & Spa","location":{"type":"Point","coordinates":[13.3818178836,52.5328333947]}},{"name":"fitbox Prenzlauer Berg - EMS Fitnessstudio","location":{"type":"Point","coordinates":[13.41233,52.53311]}},{"name":"Bikram Yoga Berlin-Mitte","location":{"type":"Point","coordinates":[13.4061029394,52.5241999393]}},{"name":"Yogatribe","location":{"type":"Point","coordinates":[13.4051992771,52.5240934247]}},{"name":"Fit in Mitte","location":{"type":"Point","coordinates":[13.4006042147,52.529732762]}},{"name":"Chimosa","location":{"type":"Point","coordinates":[13.3894333561,52.526652532]}},{"name":"Home Yoga Berlin","location":{"type":"Point","coordinates":[13.3865085038,52.526286215]}},{"name":"Eurostars Fitness Centre","location":{"type":"Point","coordinates":[13.3896179816,52.5206222008]}},{"name":"HERE Gym","location":{"type":"Point","coordinates":[13.3848810746,52.530892629]}},{"name":"Daytraining-Partnerstudio Fit am Rosenthaler Platz","location":{"type":"Point","coordinates":[13.4005093575,52.5297596986]}},{"name":"BeateBerlin","location":{"type":"Point","coordinates":[13.404954,52.5200066]}},{"name":"Pink Frauenfitness","location":{"type":"Point","coordinates":[13.3883785619,52.5203287922]}},{"name":"justfit","location":{"type":"Point","coordinates":[13.4063292131,52.5267305462]}},{"name":"Hard Candy Fitness Women","location":{"type":"Point","coordinates":[13.3881757562,52.5204309105]}},{"name":"High Intensity Training Berlin - HIT BLN","location":{"type":"Point","coordinates":[13.396449,52.531075]}},{"name":"Jivamukti Yoga","location":{"type":"Point","coordinates":[13.3994517628,52.5344856431]}},{"name":"EMS Fitnessstudio fitbox Berlin Mitte","location":{"type":"Point","coordinates":[13.39541,52.53224]}},{"name":"Personal Fitness Lounge Inh. Stefan M\u00fcller","location":{"type":"Point","coordinates":[13.41135469,52.52820547]}},{"name":"Precious SPA & Fitness","location":{"type":"Point","coordinates":[13.4128890081,52.5231167768]}},{"name":"Plista Gym","location":{"type":"Point","coordinates":[13.412794348,52.5284462896]}},{"name":"Westin Grand Gym","location":{"type":"Point","coordinates":[13.3877998855,52.5158460449]}},{"name":"turnhalle hightech sports","location":{"type":"Point","coordinates":[13.3842605003,52.5240084592]}},{"name":"RAMADA hotel Alexanderplatz - Fitness & Spa","location":{"type":"Point","coordinates":[13.414811,52.525635]}},{"name":"HOLMES PLACE","location":{"type":"Point","coordinates":[13.39109993,52.51266836]}},{"name":"Cosmo Gym","location":{"type":"Point","coordinates":[13.4011054348,52.5115228735]}},{"name":"Six-One Physio","location":{"type":"Point","coordinates":[13.3904114573,52.5139201664]}},{"name":"Dennis Firma","location":{"type":"Point","coordinates":[13.3935913,52.5127177]}},{"name":"Holiday Inn Fitness","location":{"type":"Point","coordinates":[13.417557478,52.5236762255]}},{"name":"Hilton Gym","location":{"type":"Point","coordinates":[13.3916041352,52.5120692139]}},{"name":"Park Plaza Wallstreet Berlin Fitness and Sauna","location":{"type":"Point","coordinates":[13.4078468785,52.511466772]}},{"name":"John&Jane\u2019s Soulbase","location":{"type":"Point","coordinates":[13.402972,52.527703]}},{"name":"Electric Yoga","location":{"type":"Point","coordinates":[13.40564263,52.52733494]}},{"name":"Yoga Welt","location":{"type":"Point","coordinates":[13.407915,52.526671]}},{"name":"Ashtanga Yoga Berlin","location":{"type":"Point","coordinates":[13.3986117907,52.5313154029]}},{"name":"8chtsam","location":{"type":"Point","coordinates":[13.3835917736,52.5300550979]}},{"name":"Fightstuff24","location":{"type":"Point","coordinates":[13.3889148,52.5145671]}},{"name":"Deutsche Akademie f\u00fcr traditionelles Yoga","location":{"type":"Point","coordinates":[13.3970224857,52.536765745]}},{"name":"Susu Yoga - Entspann Dich","location":{"type":"Point","coordinates":[13.4184154,52.5305842]}},{"name":"Padma Yoga","location":{"type":"Point","coordinates":[13.4086241299,52.536495992]}},{"name":"Pilateslab","location":{"type":"Point","coordinates":[13.4099620118,52.5359862935]}},{"name":"Becycle","location":{"type":"Point","coordinates":[13.3986099719,52.5334794406]}},{"name":"Freeletics Training Ground Berlin","location":{"type":"Point","coordinates":[13.3948177099,52.5227917019]}}]