[{"name":"Th\u00e9\u00e2tre Mogador","location":{"type":"Point","coordinates":[2.3312622041,48.8753316705]}},{"name":"Th\u00e9\u00e2tre de Paris","location":{"type":"Point","coordinates":[2.3312421561,48.8786260328]}},{"name":"Th\u00e9\u00e2tre de l'Oeuvre","location":{"type":"Point","coordinates":[2.328198426,48.880873729]}},{"name":"Th\u00e9\u00e2tre Edouard VII","location":{"type":"Point","coordinates":[2.3294059932,48.8713940186]}},{"name":"Th\u00e9\u00e2tre Fontaine","location":{"type":"Point","coordinates":[2.3346502955,48.8809875589]}},{"name":"Th\u00e9\u00e2tre de l'Ath\u00e9n\u00e9e Louis-Jouvet","location":{"type":"Point","coordinates":[2.3291165864,48.8718916725]}},{"name":"Th\u00e9\u00e2tre des Mathurins","location":{"type":"Point","coordinates":[2.325554934,48.8732316252]}},{"name":"Th\u00e9\u00e2tre Michel","location":{"type":"Point","coordinates":[2.32540378,48.8732893231]}},{"name":"Th\u00e9\u00e2tre Saint-Georges","location":{"type":"Point","coordinates":[2.3374273956,48.8782458889]}},{"name":"Th\u00e9\u00e2tre Tristan Bernard","location":{"type":"Point","coordinates":[2.3193244284,48.8788102851]}},{"name":"Th\u00e9\u00e2tre H\u00e9bertot","location":{"type":"Point","coordinates":[2.318965775,48.8820433864]}},{"name":"Th\u00e9\u00e2tre La Grande Com\u00e9die","location":{"type":"Point","coordinates":[2.3293386204,48.8794324453]}},{"name":"Th\u00e9\u00e2tre des Abbesses","location":{"type":"Point","coordinates":[2.3374244508,48.8848128292]}},{"name":"Th\u00e9\u00e2tre de la Madeleine","location":{"type":"Point","coordinates":[2.3204768364,48.8711072713]}},{"name":"La P\u00e9pini\u00e8re Th\u00e9\u00e2tre","location":{"type":"Point","coordinates":[2.3323883429,48.8686293982]}},{"name":"Th\u00e9\u00e2tre des Deux Anes","location":{"type":"Point","coordinates":[2.3314812022,48.8841781314]}},{"name":"Salle Gaveau","location":{"type":"Point","coordinates":[2.3141967281,48.873555522]}},{"name":"Th\u00e9\u00e2tre Le Petit H\u00e9bertot","location":{"type":"Point","coordinates":[2.3188282715,48.8823104138]}},{"name":"Th\u00e9\u00e2tre de L'Atelier","location":{"type":"Point","coordinates":[2.3423865438,48.8834230328]}},{"name":"Cin\u00e9 13 Th\u00e9\u00e2tre","location":{"type":"Point","coordinates":[2.3374285591,48.8875578911]}},{"name":"Th\u00e9\u00e2tre de la Bruy\u00e8re","location":{"type":"Point","coordinates":[2.3366426019,48.8774140963]}},{"name":"Th\u00e9\u00e2tre des Vari\u00e9t\u00e9s","location":{"type":"Point","coordinates":[2.3421736686,48.8716437852]}},{"name":"Op\u00e9ra Garnier","location":{"type":"Point","coordinates":[2.3317086697,48.8721249545]}},{"name":"Th\u00e9\u00e2tre des Bouffes Parisiens","location":{"type":"Point","coordinates":[2.3352566631,48.8684840347]}},{"name":"Th\u00e9\u00e2tre Tr\u00e9vise","location":{"type":"Point","coordinates":[2.3455224246,48.8735877999]}},{"name":"Max Linder Panorama","location":{"type":"Point","coordinates":[2.3448085785,48.8713839846]}},{"name":"Th\u00e9\u00e2tre de la Michodi\u00e8re","location":{"type":"Point","coordinates":[2.3344864207,48.8691754079]}},{"name":"Th\u00e9\u00e2tre Michel Galabru","location":{"type":"Point","coordinates":[2.3345232,48.887257]}},{"name":"Th\u00e9\u00e2tre La Cible","location":{"type":"Point","coordinates":[2.3368075415,48.8815678835]}},{"name":"Th\u00e9\u00e2tre Le bout","location":{"type":"Point","coordinates":[2.3374929695,48.8813280286]}},{"name":"Th\u00e9\u00e2tre Ouvert","location":{"type":"Point","coordinates":[2.332112,48.88457]}},{"name":"Manufacture des Abbesses","location":{"type":"Point","coordinates":[2.3367618429,48.8844215836]}},{"name":"Th\u00e9atre Daunou","location":{"type":"Point","coordinates":[2.3320229585,48.8695150277]}},{"name":"L'\u00c9cole du One Man Show","location":{"type":"Point","coordinates":[2.3406146313,48.8820137432]}},{"name":"Le bordel club","location":{"type":"Point","coordinates":[2.334493,48.887254]}},{"name":"Theatre Du Tremplin","location":{"type":"Point","coordinates":[2.3399256649,48.8852554854]}},{"name":"Th\u00e9\u00e2tre du Nord-Ouest","location":{"type":"Point","coordinates":[2.3428969478,48.8723514555]}},{"name":"Theatre Le Lieu","location":{"type":"Point","coordinates":[2.345476,48.875343]}},{"name":"UGC Op\u00e9ra","location":{"type":"Point","coordinates":[2.335294,48.871386]}}]